oaci,nom,ville,pays,lat,lon
LFQJ,Montbéliard Courcelles,Montbéliard,France,47.4872,6.7911
LFGI,Gray Saint-Adrien,Gray,France,47.4500,5.5833
LFQP,Phalsbourg-Bourscheid,Phalsbourg,France,48.7670,7.1970
LFSR,Reims Champagne,Reims,France,49.3100,4.0500
LFST,Strasbourg Entzheim,Strasbourg,France,48.5442,7.6283
LFSA,Vesoul Frotey,Vesoul,France,47.6333,6.1667
LFGF,Dole Tavaux,Dole,France,47.0390,5.4270
